[
  {
    "id": "wolly",
    "name": "Woolly Trails",
    "short": "Wolly",
    "city": "St. Croix Falls, WI",
    "lat": 45.395,
    "lon": -92.635,
    "metar": "KOEO",
    "notes": ""
  },
  {
    "id": "elm-creek",
    "name": "Elm Creek Park Reserve",
    "short": "Elm Creek",
    "city": "Maple Grove, MN",
    "lat": 45.176,
    "lon": -93.43,
    "metar": "KMIC",
    "notes": ""
  },
  {
    "id": "battle-creek",
    "name": "Battle Creek Regional Park",
    "short": "Battle Creek",
    "city": "St. Paul, MN",
    "lat": 44.9393,
    "lon": -93.01,
    "metar": "KSTP",
    "notes": "Nearest METAR KSTP ~2.3 mi"
  },
  {
    "id": "theo-wirth",
    "name": "Theodore Wirth",
    "short": "Theo Wirth",
    "city": "Minneapolis, MN",
    "lat": 44.992,
    "lon": -93.322,
    "metar": "KMIC",
    "notes": "Nearest METAR KMIC ~5.1 mi"
  },
  {
    "id": "sunfish-lake",
    "name": "Sunfish Lake Park",
    "short": "Sunfish Lake",
    "city": "Lake Elmo, MN",
    "lat": 44.996,
    "lon": -92.9132,
    "metar": "K21D",
    "notes": "Nearest METAR K21D ~2.9 mi"
  },
  {
    "id": "carver-lake",
    "name": "Carver Lake Park",
    "short": "Carver Lake",
    "city": "Woodbury, MN",
    "lat": 44.9026,
    "lon": -92.9781,
    "metar": "KSTP",
    "notes": "Nearest METAR KSTP ~4.3 mi"
  },
  {
    "id": "snail-lake",
    "name": "Snail Lake Park",
    "short": "Snail Lake",
    "city": "Shoreview, MN",
    "lat": 45.0695,
    "lon": -93.1206,
    "metar": "KANE",
    "notes": "Nearest METAR KANE ~6.8 mi"
  },
  {
    "id": "lino-lakes",
    "name": "Lino Lakes",
    "short": "Lino",
    "city": "Lino Lakes, MN",
    "lat": 45.1423,
    "lon": -93.1105,
    "metar": "KANE",
    "notes": "Nearest METAR KANE ~5.0 mi"
  },
  {
    "id": "lebanon-hills",
    "name": "Lebanon Hills Regional Park",
    "short": "Lebanon Hills",
    "city": "Eagan, MN",
    "lat": 44.7823,
    "lon": -93.1877,
    "metar": "KMSP",
    "notes": "Nearest METAR KMSP ~7.2 mi"
  },
  {
    "id": "murphy",
    "name": "Murphy-Hanrehan Park Reserve",
    "short": "Murphy",
    "city": "Prior Lake, MN",
    "lat": 44.7225,
    "lon": -93.3472,
    "metar": "KLVN",
    "notes": "Nearest METAR KLVN ~8.8 mi"
  },
  {
    "id": "monarch",
    "name": "Monarch Singletrack (Carver Park Reserve)",
    "short": "Monarch",
    "city": "Waconia, MN",
    "lat": 44.8779,
    "lon": -93.719,
    "metar": "KFCM",
    "notes": "Nearest METAR KFCM ~12.6 mi. Springview Dr trailhead, 6920 Springview Dr, Waconia MN"
  },
  {
    "id": "white-tail-ridge",
    "name": "Whitetail Ridge",
    "short": "White Tail Ridge",
    "city": "River Falls, WI",
    "lat": 44.8874,
    "lon": -92.635,
    "metar": "K21D",
    "notes": "Nearest METAR K21D ~13.3 mi"
  },
  {
    "id": "willow-river",
    "name": "Willow River State Park",
    "short": "Willow River",
    "city": "Hudson, WI",
    "lat": 45.0065,
    "lon": -92.6756,
    "metar": "K21D",
    "notes": "Nearest METAR K21D ~8.8 mi"
  },
  {
    "id": "gateway-trail",
    "name": "Gateway State Trail",
    "short": "Gateway Trail",
    "city": "St. Paul, MN",
    "lat": 44.9852,
    "lon": -93.0869,
    "metar": "KSTP",
    "notes": "Nearest METAR KSTP ~4.0 mi. paved multi-use state trail (not MTB)"
  },
  {
    "id": "xcel-shakopee",
    "name": "Xcel Energy Park Shakopee",
    "short": "Xcel Energy Park",
    "city": "Shakopee, MN",
    "lat": 44.7974,
    "lon": -93.4602,
    "metar": "KFCM",
    "notes": "Nearest METAR KFCM ~2.5 mi"
  },
  {
    "id": "cuyuna",
    "name": "Cuyuna Lakes",
    "short": "Cuyuna",
    "city": "Ironton, MN",
    "lat": 46.4903,
    "lon": -94.0071,
    "metar": "KBRD",
    "notes": "Nearest METAR KBRD ~8.4 mi"
  },
  {
    "id": "redhead",
    "name": "Redhead MTB Park",
    "short": "Redhead",
    "city": "Chisholm, MN",
    "lat": 47.4738,
    "lon": -92.8916,
    "metar": "KHIB",
    "notes": "Nearest METAR KHIB ~7.0 mi"
  }
]